City,Country,Lat,Lng,Current Temp (°F),Min Temp (°F),Max Temp (°F),Humidity (%),Cloudiness (%),Wind Speed (mph),Date (unix)
longyearbyen,SJ,34.81,-106.73,83.59,82.4,84.2,11,1,8.05,1588029763
sola,VU,-21.21,-159.78,82.4,82.4,82.4,78,98,3.36,1588029764
mataura,PF,25.93,-105.37,87.73,87.73,87.73,9,40,12.84,1588029764
pochutla,MX,-34.42,19.23,60.04,60.04,60.04,77,42,17.58,1588029764
hambantota,LK,9.97,98.63,78.8,78.8,78.8,88,75,1.12,1588029764
atuona,PF,-21.36,55.77,70,64.99,73.4,78,90,8.05,1588029764
hoa binh,VN,-42.88,147.33,57.97,55.4,59,66,75,8.05,1588029765
busselton,AU,-17.97,122.23,84.2,84.2,84.2,83,20,5.82,1588029765
punta arenas,CL,-35.72,150.18,68,68,68,80,7,4.74,1588029766
rikitea,PF,-28.77,114.6,60.8,60.8,60.8,77,90,6.93,1588029766
barrow,US,-3.8,102.27,75.42,75.42,75.42,82,93,4.16,1588029766
chuy,UY,-34.73,135.87,63.39,63.39,63.39,61,100,15.26,1588029766
lagoa,PT,-20.52,57.52,75.2,75.2,75.2,73,75,11.41,1588029766
mahebourg,MU,-33.65,115.33,52,50,54,70,21,10.42,1588029767
xichang,CN,-23.12,-134.97,76.95,76.95,76.95,83,44,15.41,1588029767
mount isa,AU,-54.8,-68.3,44.6,44.6,44.6,75,53,21.92,1588029676
umzimvubu,ZA,19.73,-155.09,78.66,75.99,82.4,58,1,8.05,1588029768
palabuhanratu,ID,40.36,50.22,53.6,53.6,53.6,93,41,11.41,1588029768
pevek,RU,-0.6,73.08,83.75,83.75,83.75,75,100,10.16,1588029665
agogo,GH,-22.41,-44.26,63.86,63.86,63.86,79,17,1.97,1588029768
airai,PW,4.14,96.13,76.89,76.89,76.89,86,99,3.83,1588029554
pitimbu,BR,-2.02,147.27,84.88,84.88,84.88,75,93,8.55,1588029769
hermanus,ZA,69.53,31.17,28.4,28.4,28.4,74,75,13.87,1588029769
viedma,AR,-23.13,150.73,75.2,75.2,75.2,64,20,8.05,1588029770
bluff,NZ,57.05,-135.33,44.6,44.6,44.6,75,90,18.34,1588029770
nusaybin,TR,59.7,30.79,30.54,28.99,32,96,16,2.24,1588029770
saint-philippe,RE,59.38,143.3,31.68,31.68,31.68,93,15,9.89,1588029770
mar del plata,AR,20.7,-105.2,78.91,78.8,79,61,5,10.29,1588029770
sataua,WS,-35.02,117.89,55.4,55.4,55.4,66,90,11.41,1588029771
ouadda,CF,61.99,-49.67,31.64,31.64,31.64,98,97,7.81,1588029771
koumra,TD,-46.6,168.33,55.99,55.99,55.99,67,33,7,1588029771
faanui,PF,-33.93,18.42,60.1,57,62.01,77,0,5.82,1588029675
taolanaro,MG,-21.55,167.88,77.68,77.68,77.68,71,0,17.38,1588029772
cabo san lucas,MX,-2.57,150.8,84.63,84.63,84.63,72,89,6.58,1588029772
salalah,OM,-42.47,-73.77,54.86,53.6,55.99,93,20,11.41,1588029772
bata,GQ,52.33,-6.46,45.97,45,46.99,83,88,7,1588029772
khatanga,RU,52.14,-10.27,46.85,46.85,46.85,77,94,3.62,1588029773
coquimbo,CL,69.22,-51.1,30.2,30.2,30.2,100,95,8.05,1588029773
yulara,AU,40.0,-86.25,64.06,62.6,64.99,33,90,13.87,1588029558
acapulco,MX,-19.8,-63.22,73.74,73.74,73.74,53,0,5.97,1588029773
galiwinku,AU,-53.15,-70.92,33.8,33.8,33.8,73,40,2.75,1588029773
bandarbeyla,SO,-33.02,27.91,64.81,64.81,64.81,72,100,13.24,1588029774
leningradskiy,RU,22.08,-159.32,78.57,77,80.6,74,75,16.11,1588029773
haibowan,CN,-14.25,129.55,76.57,76.57,76.57,57,43,6.78,1588029774
belushya guba,RU,3.07,172.79,79.5,79.5,79.5,90,100,22.57,1588029774
nyaunglebin,MM,26.16,32.72,78.8,78.8,78.8,34,0,2.24,1588029775
geraldton,AU,37.72,-25.43,60.8,60.8,60.8,87,75,13.87,1588029775
pangnirtung,CA,40.6,-124.16,64.92,64,66,82,75,9.17,1588029775
donauworth,DE,0.9,104.63,78.8,78.8,78.8,94,20,7.83,1588029775
amderma,RU,-25.4,-70.48,65.16,65.16,65.16,68,4,3.4,1588029775
la ronge,CA,27.72,109.19,61.7,61.7,61.7,75,49,2.53,1588029791
mutsamudu,KM,54.81,105.16,43.88,43.88,43.88,57,18,0.56,1588029791
dikson,RU,41.37,-73.41,40.78,39.99,42.01,80,90,13.87,1588029516
laguna,BR,-38.0,-57.56,60.93,60.8,61,100,90,25.28,1588029792
albany,AU,43.71,-98.03,75.2,75.2,75.2,23,1,3.36,1588029792
vestmannaeyjar,IS,27.98,-114.06,75.25,75.25,75.25,52,45,17.72,1588029792
bud,NO,-9.8,-139.03,82.89,82.89,82.89,74,9,17.85,1588029792
doctor pedro p. pena,PY,65.61,-37.64,34.65,34.65,34.65,92,100,14.7,1588029792
komsomolskiy,RU,-33.59,26.89,64,64,64,84,100,4,1588029793
kapaa,US,-35.17,173.17,66,66,66,83,100,8.21,1588029793
krapina,HR,72.79,-56.15,29.37,29.37,29.37,98,100,6.67,1588029793
chokurdakh,RU,12.74,-8.07,87.8,87.8,87.8,22,56,4.7,1588029793
fayaoue,NC,7.71,122.14,80.01,80.01,80.01,79,99,3.83,1588029794
grand river south east,MU,-6.02,106.05,77,77,77,88,20,3.36,1588029794
bontang,ID,-24.71,-47.56,72.34,72.34,72.34,83,0,7.07,1588029795
barentsburg,SJ,-34.53,20.04,60.8,60.8,60.8,72,58,8.05,1588029795
les cayes,HT,-9.67,-35.74,77,77,77,94,40,2.24,1588029674
port elizabeth,ZA,22.57,59.53,88.56,88.56,88.56,46,0,11.45,1588029796
puerto ayora,EC,14.05,124.17,80.91,80.91,80.91,80,74,10.16,1588029796
lilongwe,MW,14.9,-24.5,73.63,73.63,73.63,77,100,5.1,1588029796
jamestown,SH,51.31,3.13,49.71,48.99,50,87,40,12.75,1588029682
port hawkesbury,CA,62.91,6.91,40.93,39,42.8,65,4,11.41,1588029796
tahoua,NE,25.75,-1,84.65,84.65,84.65,13,45,7.02,1588029797
noumea,NC,71.29,-156.79,12.2,12.2,12.2,85,90,5.82,1588029636
taoudenni,ML,56.45,138.17,37.26,37.26,37.26,75,75,10.22,1588029798
ambilobe,MG,-15.94,-5.72,69.85,69.85,69.85,76,68,15.48,1588029798
yellowknife,CA,-0.74,-90.35,80.91,80.01,82.4,74,20,12.75,1588029798
nianzishan,CN,-20.41,57.7,75.2,75.2,75.2,73,75,11.41,1588029798
doctor juan leon mallorquin,PY,9.55,-79.65,83.68,82.99,84.2,70,96,4.7,1588029799
khani,RU,56.55,37.88,32.5,32.5,32.5,88,37,4.9,1588029799
sentyabrskiy,RU,55.74,-97.86,32,32,32,83,75,12.75,1588029799
thompson,CA,5.33,-4.38,80.6,80.6,80.6,88,20,5.82,1588029799
fortuna,US,53.08,45.68,48,48,48,88,0,7.49,1588029800
sitka,US,60.14,-45.24,33.33,33.33,33.33,92,47,2.57,1588029800
tiksi,RU,77.48,-69.36,25.32,25.32,25.32,94,100,7.78,1588029800
nizhneyansk,RU,52.37,-114.92,54.7,54.7,54.7,27,75,7.36,1588029800
sao filipe,CV,-4.62,55.45,84.2,84.2,84.2,83,40,4.7,1588029801
oistins,BB,-33.92,25.57,59,59,59,93,90,9.17,1588029801
dunedin,NZ,-24.87,113.63,66.2,66.2,66.2,77,2,20.8,1588029801
korla,CN,-14.27,50.17,76.71,76.71,76.71,87,8,11.97,1588029801
petropavlovsk-kamchatskiy,RU,69.45,-133.04,15.8,15.8,15.8,78,75,18.34,1588029802
lebu,CL,-25.24,130.99,69.8,69.8,69.8,46,85,9.17,1588029802
bathsheba,BB,-26.37,-70.05,57.42,57.42,57.42,46,0,2.57,1588029802
bhinmal,IN,4.93,-52.33,77,77,77,100,75,6.93,1588029802
duisburg,DE,-15.53,167.17,82.4,82.4,82.4,78,40,8.05,1588029803
constitucion,MX,47.47,84.87,61.66,61.66,61.66,35,25,2.93,1588029803
ponta do sol,CV,43.98,46.7,50.04,50.04,50.04,80,99,8.28,1588029803
tumannyy,RU,42.8,93.45,60.73,60.73,60.73,14,0,2.04,1588029803
viligili,MV,45.78,-111.18,55.9,52,60.8,31,40,12.75,1588029803
narsaq,GL,49.42,-82.43,48.2,48.2,48.2,29,20,11.41,1588029804
labuhan,ID,-21.2,-175.2,78.8,78.8,78.8,78,75,14.99,1588029819
sayville,US,43.26,42.64,29.77,29.77,29.77,44,97,8.05,1588029819
hobart,AU,71.92,114.08,17.65,17.65,17.65,94,51,2.82,1588029819
nome,US,50.57,123.72,45.59,45.59,45.59,44,0,5.7,1588029820
torbay,CA,62.59,9.69,29.1,29.1,29.1,81,85,3.4,1588029820
tashtyp,RU,63.9,122.76,30.9,30.9,30.9,93,41,0.6,1588029820
vila,VU,70.63,147.92,18.34,18.34,18.34,97,100,7.9,1588029820
faya,TD,-20.32,118.57,80.6,80.6,80.6,42,75,6.93,1588029820
castro,CL,45.32,55.2,53.06,53.06,53.06,76,66,5.41,1588029821
butaritari,KI,23.45,-110.22,74.53,73,75.99,54,22,3,1588029821
atar,MR,64.38,-173.3,26.6,26.6,26.6,68,72,2.24,1588029821
dembi dolo,ET,-4.36,14.76,71.08,71.08,71.08,80,79,1.07,1588029821
cayenne,GF,-42.78,147.06,56.37,54,59,62,30,4,1588029821
georgetown,SH,71.69,128.87,18.5,18.5,18.5,93,100,2.35,1588029822
arraial do cabo,BR,-21.64,-41.05,72.37,72.37,72.37,71,0,8.32,1588029822
carnarvon,AU,-22.96,14.51,56.14,55.4,57,100,0,5.82,1588029822
derzhavinsk,KZ,68.22,-135.01,21.2,21.2,21.2,53,75,4.7,1588029822
vila velha,BR,-20.21,57.76,74.07,73,75.2,73,75,11.41,1588029823
winslow,US,-20.34,57.76,74.17,73,75.2,73,75,11.41,1588029823
guider,CM,33.08,-16.33,62.6,62.6,62.6,77,20,8.05,1588029823
tasiilaq,GL,63.44,-20.27,41.18,41.18,41.18,69,27,5.99,1588029823
pandan,PH,3.9,-51.8,74.16,74.16,74.16,96,100,2.39,1588029824
vanimo,PG,-37.88,147.98,52,52,52,86,0,3.98,1588029824
mercedes,AR,78.22,15.64,24.8,24.8,24.8,68,75,13.87,1588029824
ambon,ID,46.86,-114.05,60.8,60.8,60.8,41,75,19.46,1588029825
pacific grove,US,-0.36,42.55,82.35,82.35,82.35,81,52,9.73,1588029825
avarua,CK,58.43,29.37,29.66,29.66,29.66,94,0,1.97,1588029825
show low,US,38.93,100.45,53.96,53.96,53.96,19,1,4.83,1588029826
berdigestyakh,RU,59.24,163.07,27.9,27.9,27.9,94,0,3.33,1588029827
sistranda,NO,57.89,39.54,37.4,37.4,37.4,69,54,4.47,1588029828
port blair,IN,58.21,-6.39,42.48,42.01,42.8,87,0,18.34,1588029828
teya,RU,23.46,116.77,68,68,68,68,93,2.24,1588029829
sorong,ID,28.66,-17.92,62.44,60.01,66.2,68,40,4.7,1588029829
vershino-shakhtaminskiy,RU,44.93,130.53,47.98,47.98,47.98,48,95,7.05,1588029830
kirakira,SB,28.41,-80.6,69.55,69.01,71.01,56,1,9.17,1588029624
kailua,US,-9.09,-78.58,69.4,69.4,69.4,81,92,10.85,1588029831
ponta delgada,PT,-23.86,35.38,69.33,69.33,69.33,71,0,4,1588029831
ruteng,ID,-15.5,-49.69,69.75,69.75,69.75,69,0,3.65,1588029831
lorengau,PG,-5.11,105.31,73.47,73.47,73.47,89,83,4.54,1588029606
iralaya,HN,-41.87,-73.82,54.73,53.6,55.99,93,20,11.41,1588029832
irituia,BR,20.87,-90.4,84.92,84.92,84.92,68,4,23.2,1588029832
college,US,10.77,75.93,81.86,81.86,81.86,77,71,3.85,1588029832
kyabram,AU,-30.03,-70.71,62.6,62.6,62.6,82,40,5.82,1588029832
yucaipa,US,-13.3,-72.12,55.02,55.02,55.02,28,67,4.21,1588029833
iqaluit,CA,-13.7,-76.22,70.72,69.8,72,73,12,21.92,1588029746
boyolangu,ID,43.32,145.57,40.35,40.35,40.35,78,17,8.43,1588029833
seymchan,RU,-16.48,-151.75,82.85,82.85,82.85,78,6,17.11,1588029834
vaitupu,WF,68.75,161.3,32.11,32.11,32.11,99,100,3.89,1588029834
avera,PF,42.25,-71,38.41,37,39.2,86,90,18.34,1588029834
qaanaaq,GL,26.33,43.98,71.6,71.6,71.6,35,0,9.17,1588029835
vao,NC,13.22,-59.52,80.6,80.6,80.6,69,20,21.92,1588029850
hasaki,JP,55.34,-131.65,47.12,46.4,48.2,87,90,20.8,1588029577
marsh harbour,BS,36.34,137.88,46,46,46,70,16,0.81,1588029850
port hardy,CA,62.23,-6.59,39.2,39.2,39.2,80,100,9.17,1588029850
hilo,US,-17.93,19.77,64.4,64.4,64.4,63,0,1.12,1588029851
portland,AU,44.63,-88.04,50.76,50,52,87,90,5.82,1588029851
nylstroom,ZA,32.67,-17.1,57.85,55,62.6,67,20,2.24,1588029851
menongue,AO,-7.38,108.21,72.21,72.21,72.21,83,100,1.39,1588029851
te anau,NZ,31.76,25.09,62.37,62.37,62.37,85,0,7.99,1588029607
la asuncion,VE,-28.55,16.43,59.83,59.83,59.83,83,0,7.07,1588029852
ust-maya,RU,20.13,84.38,69.26,69.26,69.26,76,76,1.48,1588029852
tonj,SD,-8.26,-49.26,84.2,84.2,84.2,74,0,2.24,1588029853
clyde river,CA,-46.28,169.85,59,59,59,45,8,8.01,1588029853
barra do garcas,BR,-33.3,-66.34,64.63,64.63,64.63,71,81,3.24,1588029676
kahului,US,-5.2,-35.46,77,77,77,94,20,2.24,1588029853
algiers,DZ,25.03,86.9,79.09,79.09,79.09,60,76,4.05,1588029854
hervey bay,AU,24.34,124.16,71.6,71.6,71.6,83,75,19.46,1588029854
panelas,BR,5.88,-10.05,78.8,78.8,78.8,94,75,3.06,1588029564
bambous virieux,MU,62.46,-114.35,32.92,32,33.8,59,40,20.8,1588029854
chardara,KZ,-44.7,169.15,50.43,50.43,50.43,53,4,4.92,1588029854
stamsund,NO,8.01,-62.4,80.01,80.01,80.01,79,68,5.99,1588029855
new norfolk,AU,37.03,-7.84,59,59,59,77,54,6.93,1588029855
saint anthony,CA,52.2,-105.13,55.89,55.89,55.89,41,99,11.23,1588029855
talnakh,RU,6.12,81.12,80.38,80.38,80.38,84,27,5.91,1588029856
east london,ZA,50.68,156.12,32.99,32.99,32.99,94,100,15.37,1588029856
hithadhoo,MV,-33.87,121.9,55.4,55.4,55.4,87,40,11.41,1588029856
redding,US,4.38,-7.72,79.45,79.45,79.45,84,97,4.68,1588029856
sisimiut,GL,-11.3,-41.86,69.85,69.85,69.85,70,31,10.58,1588029856
victoria,SC,20.89,-156.47,78.73,75,84.2,54,40,27.51,1588029857
cape town,ZA,22.89,-109.91,85.87,84.99,87.01,45,20,9.17,1588029857
tsihombe,MG,55.7,37.38,38.39,35.6,42.01,69,40,8.95,1588029857
lethem,GY,28.89,64.41,79.88,79.88,79.88,27,0,7.72,1588029858
ribeira grande,PT,-1.4,120.75,77.88,77.88,77.88,81,94,4.52,1588029858
esperance,AU,5.89,95.32,81.64,81.64,81.64,78,96,11.86,1588029858
souillac,MU,-6.64,-51.99,74.48,74.48,74.48,87,97,3.22,1588029859
tautira,PF,4.87,-2.24,80.01,80.01,80.01,82,0,6.71,1588029859
upernavik,GL,-7.93,-14.42,80.6,80.6,80.6,74,20,13.87,1588029830
attawapiskat,CA,10.77,79.83,82.42,82.42,82.42,82,100,4.76,1588029859
fairview,CA,-20.1,146.27,72.36,72.36,72.36,60,0,11.01,1588029860
yermakovskoye,RU,48.83,58.14,48.24,48.24,48.24,84,94,6.69,1588029860
fairbanks,US,66.04,-17.34,39.2,39.2,39.2,69,0,3.36,1588029860
port alfred,ZA,66.94,-53.67,31.96,31.96,31.96,96,95,12.5,1588029838
aksu,CN,15.74,-96.47,87.8,87.8,87.8,58,20,7.23,1588029861
kavieng,PG,22.9,-83.16,78.62,78.62,78.62,71,85,11.3,1588029861
mys shmidta,RU,46.77,-56.17,33.42,33.42,33.42,92,100,18.68,1588029861
shimoga,IN,64.57,143.2,29.39,29.39,29.39,81,92,3.29,1588029861
kaitangata,NZ,47.6,-53.26,36.5,35.01,37.99,67,95,1.01,1588029862
luderitz,NA,66.77,123.37,23.36,23.36,23.36,93,7,4.27,1588029862
bataipora,BR,51.23,20.86,48,46.99,48.99,53,40,5.01,1588029862
kostyantynivka,UA,-17.34,-39.22,73.89,73.89,73.89,83,0,9.31,1588029863
naze,JP,-28.48,-48.78,70.02,70.02,70.02,82,96,14.32,1588029878
norman wells,CA,-11.1,-77.61,69.67,69.67,69.67,77,89,10.54,1588029878
udachnyy,RU,-21.47,-49.22,68.94,68.94,68.94,66,22,7.29,1588029879
matagami,CA,-0.95,100.35,78.33,78.33,78.33,70,100,3.42,1588029879
kalmunai,LK,71.97,102.5,15.93,15.93,15.93,96,100,9.82,1588029879
isangel,VU,-10.45,161.92,85.89,85.89,85.89,66,9,4.88,1588029879
abu dhabi,AE,-6.98,-34.83,78.8,78.8,78.8,94,20,4.7,1588029880
plettenberg bay,ZA,-31.42,-64.5,66.11,64.4,69.01,100,90,4.7,1588029674
kholtoson,RU,-37.62,-73.65,55.74,55.74,55.74,88,76,8.72,1588029880
namibe,AO,18.42,-64.62,79.66,79,80.01,82,77,1.01,1588029696
ajdabiya,LY,14.66,120.57,84.24,82.4,86,69,75,10.29,1588029881
lavrentiya,RU,-5.09,-81.11,73.58,73.58,73.58,71,44,18.34,1588029881
cervo,ES,47.67,-52.73,34.2,33.01,36,59,90,5.82,1588029882
nha trang,VN,42.98,144.37,42.8,42.8,42.8,75,20,6.93,1588029882
gizo,SB,27.91,-15.45,66.07,66,66.2,77,40,5.82,1588029883
pisco,PE,-33.7,-53.46,65.34,65.34,65.34,78,99,16.46,1588029883
prince rupert,CA,63.65,22.68,30.92,26.6,34,92,100,5.82,1588029883
muyezerskiy,RU,68.12,13.5,34.23,34.23,34.23,85,0,12.1,1588029883
iskateley,RU,-41.41,175.52,63.14,62.6,64,51,6,5.82,1588029884
san patricio,MX,7.0,-9.47,73.76,73.76,73.76,88,100,1.48,1588029884
mezen,RU,-9.43,159.95,86,86,86,74,20,3.36,1588029884
bethel,US,35.73,140.83,55.13,55,55.4,82,75,6.93,1588029884
turbat,PK,-30.18,-50.21,69.24,69.24,69.24,82,98,23.22,1588029885
qasigiannguit,GL,38.08,138.43,51.8,51.8,51.8,71,75,4.7,1588029885
salaberry-de-valleyfield,CA,65.37,64.67,27.05,27.05,27.05,98,93,3.02,1588029885
ilulissat,GL,15.85,-97.07,78.8,78.8,78.8,29,75,11.41,1588029886
greeley,US,-32.03,-52.1,68,68,68,83,100,7,1588029886
solsvik,NO,32.29,-64.78,71.26,71.01,71.6,94,75,24.16,1588029750
ugoofaaru,MV,13.59,-89.83,79,79,79,89,59,4,1588029886
saldanha,ZA,57.18,26.75,33.58,33.58,33.58,82,83,4.05,1588029886
lewisporte,CA,40.56,8.32,62.6,62.6,62.6,93,20,10.29,1588029887
brae,GB,7.53,-12.51,80.92,80.92,80.92,82,87,3.42,1588029887
hami,CN,-0.72,8.78,82.4,82.4,82.4,88,90,4.7,1588029887
moundou,TD,64.54,-21.92,39.11,37,42.8,70,75,8.05,1588029887
iquitos,PE,61.28,108.01,45.3,45.3,45.3,68,82,10.65,1588029887
karaul,RU,42.1,27.95,50.36,48.2,52,100,75,8.05,1588029888
los llanos de aridane,ES,55.2,80.28,52.48,52.48,52.48,44,100,8.5,1588029888
gonzales,US,-2.68,111.62,74.44,74.44,74.44,98,100,2.75,1588029888
east liverpool,US,22.28,113.57,73.26,71.6,75.2,78,100,1.12,1588029888
puerto suarez,BO,66.0,111.5,28.4,28.4,28.4,92,90,2.24,1588029889
channel-port aux basques,CA,35.39,-94.4,73.15,73,73.4,49,1,8.05,1588029601
codrington,AG,65.44,52.15,32.36,32.36,32.36,94,100,1.14,1588029889
flin flon,CA,45.47,4.53,56.07,54,57.2,71,100,9.17,1588029889
blythe,US,-16.23,39.91,75.69,75.69,75.69,83,0,7.09,1588029889
sobolevo,RU,40.29,38.42,41.14,41.14,41.14,54,69,2.44,1588029890
praia,CV,73.51,80.55,20.32,20.32,20.32,95,100,10.87,1588029890
kruisfontein,ZA,60.99,9.23,28,28,28,92,100,1.99,1588029890
albion,MU,-20.33,-40.29,73.71,73.4,73.99,73,3,6.93,1588029890
visby,SE,-9.88,-56.09,73.51,73.51,73.51,85,90,2.73,1588029891
saint george,BM,61.99,5.14,41,41,41,84,0,11.05,1588029891
kununurra,AU,-3.7,128.18,80.6,80.6,80.6,88,40,3.36,1588029906
cherskiy,RU,-9.11,124.89,73.17,73.17,73.17,72,33,4.97,1588029907
poniatowa,PL,33.67,-95.58,77.92,77,78.8,50,1,11.41,1588029907
ewo,CG,50.23,-63.6,37.4,37.4,37.4,59,1,6.93,1588029907
mangrol,IN,-19.06,-169.92,79.99,79.99,79.99,77,99,3.96,1588029908
san miguel,PA,26.78,75.2,77,77,77,65,0,8.05,1588029908
key largo,US,41.83,-70.83,39.54,39,39.99,93,90,23.04,1588029712
kavarna,BG,64.25,-15.21,37.22,37.22,37.22,77,0,0.16,1588029908
boffa,GN,33.01,70.07,70.65,70.65,70.65,46,89,2.8,1588029909
buala,SB,58.36,82.83,49.23,49.23,49.23,53,100,5.79,1588029909
biak,ID,41.92,3.16,60.3,59,61,50,92,8.28,1588029909
asau,TV,63.18,14.64,33.8,33.8,33.8,86,98,5.82,1588029910
san quintin,MX,45.23,147.88,34.25,34.25,34.25,89,82,9.51,1588029910
leninsk-kuznetskiy,RU,22.07,81.68,77.32,77.32,77.32,55,12,6.2,1588029910
rengo,CL,-33.01,17.94,60.8,60.8,60.8,63,0,6.93,1588029910
yakeshi,CN,67.63,134.63,23.72,23.72,23.72,91,86,7.07,1588029911
saint simons,US,-3.37,135.48,80.64,80.64,80.64,80,89,1.66,1588029645
nuuk,GL,38.52,-28.7,59.04,59.04,59.04,73,91,18.32,1588029911
pittsburg,US,5.49,-70.41,87.46,87.46,87.46,52,98,3.15,1588029911
kargala,RU,69.49,88.4,17.6,17.6,17.6,78,13,2.24,1588029912
tokur,RU,5.67,73,85.01,85.01,85.01,77,22,8.48,1588029912
erenhot,CN,-22.97,-42.03,71.6,71.6,71.6,88,0,3.36,1588029803
taburi,PH,-19.98,57.61,73,73,73,80,23,5.99,1588029912
piacabucu,BR,37.4,136.9,50,50,50,76,75,4.7,1588029912
san marcos,MX,-27.46,-58.98,85.01,84.2,86,45,2,13.87,1588029913
illoqqortoormiut,GL,64.89,-23.71,42.87,42.87,42.87,77,11,1.83,1588029913
tuy hoa,VN,68.05,39.51,26.69,26.69,26.69,96,98,3.4,1588029913
carbonia,IT,47.17,-67.92,41.67,41,42.01,43,100,9.84,1588029914
niquelandia,BR,25.28,110.29,57.2,57.2,57.2,93,57,2.46,1588029914
amahai,ID,60.73,24.18,35.35,33.01,37,70,89,5.01,1588029914
lengshuitan,CN,35.6,103.21,50.27,50.27,50.27,22,7,4.47,1588029914
koungou,YT,8.51,117.43,81.82,81.82,81.82,79,55,7.87,1588029914
nanortalik,GL,34.98,139.87,58.3,55.99,60.01,72,40,5.82,1588029915
buchanan,LR,7.02,39.98,53.46,53.46,53.46,41,97,2.37,1588029915
shenzhen,CN,10.57,72.64,85.5,85.5,85.5,66,47,9.08,1588029915
koroni,GR,69.7,170.31,21.65,21.65,21.65,95,89,10.63,1588029915
jumla,NP,22.81,115.83,72.18,72.18,72.18,62,100,13.6,1588029916
klaksvik,FO,-21.35,165.15,78.84,78.84,78.84,59,0,5.1,1588029916
blind river,CA,-33.08,-68.47,62.6,62.6,62.6,88,75,4.7,1588029916
maragogi,BR,-31.25,-61.49,68.41,68,69.01,79,87,7,1588029916
cockburn harbour,TC,22.27,-101.97,81.28,81.28,81.28,12,58,6.91,1588029917
ancud,CL,-28.87,153.57,68.29,66.2,69.8,88,75,6.93,1588029917
rio cuarto,AR,-6.22,155.63,86.13,86.13,86.13,64,8,2.82,1588029917
vyyezdnoye,RU,44.51,50.26,54.28,54.28,54.28,78,1,8.97,1588029917
sao felix do xingu,BR,30.33,10.85,71.55,71.55,71.55,35,3,13.96,1588029918
duz,TN,66.08,33.04,25.86,25.86,25.86,97,99,3.8,1588029918
mayumba,GA,67.67,12.69,35.08,35.08,35.08,82,9,15.57,1588029918
tuatapere,NZ,60.47,166.1,25.23,25.23,25.23,95,81,0.98,1588029918
shizunai,JP,62.72,147.95,24.42,24.42,24.42,89,100,2.57,1588029919
mount gambier,AU,62.67,135.6,28.06,28.06,28.06,95,84,4.54,1588029919
yegorlykskaya,RU,-1.78,37.63,65.44,65.44,65.44,69,58,1.32,1588029934
falealupo,WS,62.58,6.13,40.96,39,42.8,81,0,18.34,1588029934
umba,RU,-37.83,140.77,50,50,50,87,99,8.05,1588029934
urumqi,CN,-34.0,24.73,54.91,54.91,54.91,82,100,3.85,1588029935
haapu,PF,36.41,64.91,66.38,66.38,66.38,66,86,8.63,1588029935
beira,MZ,-32.27,150.9,61.86,61.86,61.86,79,71,1.63,1588029936
caravelas,BR,46.47,-120.67,70.12,69.01,71.6,28,1,14.99,1588029936
north platte,US,-8.14,159.59,86.14,86.14,86.14,70,47,5.97,1588029936
athabasca,CA,40.19,-92.58,71.62,71.01,72,53,40,11.41,1588029875
kopavogur,IS,-45.42,167.72,51.57,51.57,51.57,66,38,6.26,1588029937
pangody,RU,50.7,-127.42,53.6,53.6,53.6,62,75,10.29,1588029937
chapais,CA,30.37,-88.56,75.02,73.99,75.99,41,1,6.93,1588029937
berezovyy,RU,44.06,-103.15,75.52,73.99,77,23,1,13.87,1588029937
fare,PF,-8.75,-67.4,75.78,75.78,75.78,88,100,0.85,1588029688
tuktoyaktuk,CA,24.69,46.72,73.4,73.4,73.4,35,0,3.36,1588029661
thinadhoo,MV,17.02,54.09,84.2,84.2,84.2,79,20,6.93,1588029938
bridlington,GB,2.95,-76.27,80.6,80.6,80.6,61,75,16.11,1588029938
hofn,IS,24.47,69.58,76.1,76.1,76.1,92,1,15.12,1588029939
orlik,RU,23.99,-104.67,86.13,84.99,87.8,8,40,18.34,1588029939
boldumsaz,TM,44.92,-0.25,54.93,53.6,55.99,93,45,5.82,1588029940
puerto del rosario,ES,-16.62,-72.71,68.7,68.7,68.7,74,35,8.79,1588029940
vandra,EE,-21.05,31.67,63.41,63.41,63.41,71,0,2.82,1588029940
mto wa mbu,TZ,28.58,65.42,79.3,79.3,79.3,22,0,5.21,1588029941
colmenar viejo,ES,50.38,106.11,52.84,52.84,52.84,57,98,6.2,1588029941
pulandian,CN,70.66,23.68,26.6,26.6,26.6,86,75,12.75,1588029941
mrirt,MA,-24.7,44.75,61.43,61.43,61.43,76,0,5.61,1588029941
moree,AU,7.8,6.74,81.91,81.91,81.91,76,89,5.7,1588029942
seoul,KR,34.61,43.68,70.45,70.45,70.45,27,57,6.04,1588029942
maple creek,CA,-7.3,27.42,70.43,70.43,70.43,74,10,3.47,1588029942
atbasar,KZ,53.9,27.57,33.8,33.8,33.8,74,81,3.91,1588029770
camden,US,61.95,159.23,27.16,27.16,27.16,88,39,2.95,1588029943
santa rosa,AR,-43.3,-65.1,59.25,59.25,59.25,81,59,16.37,1588029699
sept-iles,CA,65.75,150.85,32.04,32.04,32.04,97,99,5.64,1588029943
apatity,RU,45.87,25.78,39.31,36,44.01,64,4,2.17,1588029943
yibin,CN,51.55,-9.27,48.2,48.2,48.2,81,75,3.36,1588029944
bam,IR,6.54,21.99,71.82,71.82,71.82,79,100,3.89,1588029944
dakar,SN,32.38,15.09,66.47,66.47,66.47,68,21,6.71,1588029945
melnik,CZ,-6.12,141.29,79.77,79.77,79.77,89,70,2.33,1588029784
vilyuysk,RU,32.03,51.88,50.16,50.16,50.16,22,0,2.13,1588029945
santa luzia,BR,62.88,152.43,26.2,26.2,26.2,91,37,2.51,1588029945
yuryevets,RU,5.66,-53.78,77.09,77.09,77.09,81,91,9.33,1588029946
sanica,BA,-19.55,169.27,80.6,80.6,80.6,69,75,6.93,1588029946
meulaboh,ID,67.45,153.68,32.38,32.38,32.38,98,100,1.66,1588029946
vila do maio,CV,57.16,10.29,39,39,39,93,16,5.37,1588029946
hohhot,CN,12.25,75.1,79.66,79.66,79.66,82,0,5.79,1588029946
sailana,IN,69.38,178.42,28.02,28.02,28.02,88,2,2.64,1588029947
aklavik,CA,-8.77,160.7,86.05,86.05,86.05,67,35,2.17,1588029947
kuche,CN,65.58,-171,20.17,20.17,20.17,92,0,7.07,1588029947
kavaratti,IN,60.87,60.42,33.91,33.91,33.91,93,100,2.84,1588029947
makubetsu,JP,61.35,16.39,36,36,36,74,93,7.76,1588029947
bacolod,PH,-9.66,120.26,78.22,78.22,78.22,80,57,6.64,1588029963
montgomery,US,70.37,31.11,26.6,26.6,26.6,73,75,13.87,1588029963
rungata,KI,64.5,-165.41,24.89,24.8,25,85,90,6.93,1588029963
adrar,DZ,52.37,-106.97,60.6,60.01,61,36,75,11.41,1588029963
itarema,BR,21.46,-71.14,79.34,79.34,79.34,78,3,14.32,1588029964
kabinda,CD,-29.95,-71.34,62.6,62.6,62.6,82,40,5.82,1588029964
taltal,CL,-5.95,34.13,59.7,59.7,59.7,62,23,7.31,1588029964
lalmohan,BD,37.46,-122.43,69.49,60.8,75.99,77,1,16.11,1588029964
saint-pierre,RE,29.37,-94.97,77.32,75.99,79,68,88,3,1588029879
nemuro,JP,-21.37,55.62,71.6,71.6,71.6,78,90,8.05,1588029965
reutte,AT,50.63,-96.99,60.46,59,61,36,43,4.21,1588029965
flinders,AU,52.67,34.36,36.88,36.88,36.88,83,33,6.58,1588029966
makakilo city,US,3.28,32.89,67.77,67.77,67.77,71,99,1.72,1588029966
pangoa,PE,32.87,59.22,59,59,59,54,63,3.53,1588029966
tromso,NO,39.51,54.37,56.44,56.44,56.44,62,0,4.74,1588029966
deputatskiy,RU,17.49,44.13,78.8,78.8,78.8,34,40,1.88,1588029967
okha,RU,9.49,50.81,83.17,83.17,83.17,76,0,11.68,1588029967
havoysund,NO,38.8,-77.05,56.66,54,59,41,40,12.75,1588029925
imphal,IN,29.11,21.29,74.98,74.98,74.98,41,0,14.56,1588029968
nurota,UZ,-34.58,150.86,70,70,70,75,25,7,1588029968
dolbeau,CA,48.75,-86.43,44.1,44.1,44.1,73,79,8.95,1588029968
shakawe,BW,39.16,23.49,61,61,61,49,0,4,1588029969
katherine,AU,57.79,36.7,33.13,33.13,33.13,87,83,6.46,1588029969
marawi,SD,-18.95,-57.8,78.08,78.08,78.08,47,22,4.7,1588029969
bocanda,CI,58.81,-122.7,53.6,53.6,53.6,40,75,3.2,1588029969
venustiano carranza,MX,31.6,-94.63,78.94,78.01,80.6,51,20,16.11,1588029891
khandyga,RU,-6.47,16.82,71.04,71.04,71.04,80,32,1.01,1588029970
pimentel,PE,66.5,25.72,28.4,28.4,28.4,74,99,11.41,1588029970
coihaique,CL,45.78,-108.5,63.75,62.6,64.99,36,40,24.16,1588029785
oparino,RU,65.97,78.37,29.59,29.59,29.59,97,100,3.13,1588029970
malchin,DE,-17.53,-149.33,87.8,87.8,87.8,66,7,19.46,1588029971
dudinka,RU,48.68,71.64,66.07,66.07,66.07,43,10,13.82,1588029971
linxia,CN,50.2,-66.38,38.73,37,41,41,20,4.7,1588029971
erzin,RU,61.47,-6.81,41.99,41.99,41.99,73,70,22.08,1588029972
bur gabo,SO,-35.26,174.12,64.78,63,66,85,100,8.99,1588029972
kashan,IR,-9.56,-48.4,74.93,74.93,74.93,84,2,4.05,1588029972
lompoc,US,-0.9,-89.62,80.6,80.6,80.6,78,75,12.75,1588029972
sovetskiy,RU,59.7,150.17,30.45,30.45,30.45,93,43,1.36,1588029972
vikhorevka,RU,11.28,-15.83,78.01,78.01,78.01,71,19,13.02,1588029973
vanavara,RU,52.52,99.83,44.26,44.26,44.26,51,97,2.98,1588029973
redlands,US,-15.74,-43.03,66.24,66.24,66.24,62,0,7.52,1588029973
mweka,CD,47.2,-121.99,60.22,59,63,52,61,8.01,1588029974
bowling green,US,6.39,-0.38,72.3,72.3,72.3,79,28,4.14,1588029974
amboasary,MG,34.05,-79.67,71.73,69.8,73.4,23,1,6.93,1588029974
port augusta,AU,48.74,-0.57,53.6,53.6,53.6,93,90,3.36,1588029974
beni suef,EG,-6.88,112.21,78.06,78.06,78.06,85,100,5.95,1588029975
uvalde,US,45.12,23.13,46.69,46.69,46.69,61,4,2.06,1588029975
ciudad real,ES,29.04,67.82,91.33,91.33,91.33,17,13,4.85,1588029975
smolensk,RU,54.43,31.9,34.99,34.99,34.99,81,29,5.97,1588029975
haileybury,CA,-35.57,138.62,57,57,57,95,99,11.83,1588029976
diamantino,BR,-19.12,33.48,66.2,66.2,66.2,100,75,0.25,1588029991
mezhdurechensk,RU,51.13,9.55,44.76,41,46.99,65,40,3.36,1588029991
ahipara,NZ,34.38,-86.33,67.05,64.99,69.01,29,1,4.7,1588029991
victoria point,AU,-15.2,12.15,75.04,75.04,75.04,57,0,5.48,1588029991
lakselv,NO,35.13,140.3,57.18,55,60.01,68,58,1.01,1588029992
alvand,IR,42.73,133.08,43.03,43.03,43.03,72,55,4.61,1588029992
karema,TZ,39.05,-27.98,57.61,57.61,57.61,75,95,20.2,1588029992
jequie,BR,15.17,44.32,63.23,63.23,63.23,31,97,4.54,1588029992
itupiranga,BR,61.36,63.58,38.05,38.05,38.05,90,100,6.58,1588029993
quelimane,MZ,-25.17,45.05,63.16,63.16,63.16,73,8,10.47,1588029993
kholodnyy,RU,65.28,-126.83,30.2,30.2,30.2,50,75,11.41,1588029993
san carlos del zulia,VE,42.87,132.68,44.65,44.65,44.65,67,62,1.05,1588029994
bay roberts,CA,50.63,81.91,56.28,56.28,56.28,66,60,4.47,1588029994
san juan,PH,54.78,-127.17,51.8,51.8,51.8,43,75,12.75,1588029994
nicoya,CR,18.65,-74.12,80.91,80.91,80.91,78,43,7.11,1588029994
port macquarie,AU,42.96,126.75,51.48,51.48,51.48,41,100,12.88,1588029908
newport,US,32.38,-64.68,71.35,71.01,71.6,94,75,24.16,1588029995
alice springs,AU,41.28,-70.1,41.99,41,42.8,38,90,25.28,1588029995
novikovo,RU,49.7,37.17,38.82,38.82,38.82,77,0,7.67,1588029995
aflu,DZ,-23.49,-58.8,81.19,81.19,81.19,35,0,8.19,1588029996
hays,US,12.58,-1.3,93.2,93.2,93.2,36,58,6.93,1588029996
baykit,RU,28.5,-13.86,68,68,68,72,9,6.93,1588029996
nouadhibou,MR,53.96,105.88,43.72,43.72,43.72,52,43,1.34,1588029997
amga,RU,28.62,-81.44,74.61,72,78.01,47,1,14.99,1588029997
comodoro rivadavia,AR,-23.7,133.88,71.6,71.6,71.6,43,11,4.7,1588029812
severo-kurilsk,RU,61.67,96.37,39.97,39.97,39.97,78,100,2.86,1588029997
mokhsogollokh,RU,60.92,-46.05,37.4,37.4,37.4,64,50,1.12,1588029998
ketchikan,US,36.26,2.75,60.8,60.8,60.8,87,40,8.05,1588029998
yerbogachen,RU,70.47,-68.59,10.4,10.4,10.4,85,75,4.7,1588029999
kachug,RU,20.01,110.35,68,68,68,94,100,2.24,1588029999
mwense,ZM,-7.05,113.93,81.66,81.66,81.66,78,98,8.97,1588029999
kinsale,IE,52.91,87.31,51.03,51.03,51.03,81,56,3.11,1588030000
namie,JP,18.69,12.92,89.11,89.11,89.11,10,10,5.46,1588030000
wanning,CN,0.05,18.26,69.98,69.98,69.98,88,85,3.2,1588030000
miraflores,CO,19.22,-104.7,78.8,78.8,78.8,83,5,11.41,1588030000
provideniya,RU,60.12,64.78,44.53,44.53,44.53,79,71,3.27,1588030001
bengkulu,ID,24.09,32.91,84.52,84.52,84.52,15,6,9.33,1588030001
campoverde,PE,60.37,93.04,43.32,43.32,43.32,56,82,5.91,1588030001
nawa,SY,20.52,-13.05,80.91,80.91,80.91,16,54,5.91,1588030001
cidreira,BR,65.85,44.24,25.79,25.79,25.79,98,15,3.87,1588030002
pullman,US,-14.19,-75.71,72,72,72,73,1,11.99,1588030002
tura,RU,-3.77,-70.38,80.6,80.6,80.6,94,75,1.92,1588030002
latur,IN,-12.93,34.3,71.08,71.08,71.08,60,1,5.37,1588030002
deloraine,CA,-21.67,45.17,69.73,69.73,69.73,65,0,3.96,1588030003
diu,IN,-26.65,15.16,66.2,66.2,66.2,68,0,8.05,1588030003
sao pedro,BR,-11.74,24.43,59,59,59,59,65,3.42,1588030003
san rafael,AR,51.26,-80.61,50,50,50,25,1,10.29,1588030003
cairo,EG,63.75,-68.51,17.29,17.01,17.6,78,40,4.7,1588030003
forio,IT,69.65,18.96,32,32,32,93,75,5.82,1588030004
nador,MA,40.71,0.58,56.01,55,57,66,83,14,1588030004
anloga,GH,-1.57,9.26,77.9,77.9,77.9,88,99,4.03,1588030019
mitsamiouli,KM,-7.28,-76.8,76.14,76.14,76.14,73,72,0.92,1588030019
gore,ET,10.62,104.18,77,77,77,88,40,3.36,1588030020
victor harbor,AU,57.31,88.17,45.52,45.52,45.52,54,41,2.89,1588030020
takoradi,GH,16.78,94.73,76.1,76.1,76.1,84,91,4.05,1588030020
tilichiki,RU,21.44,-157.84,81.05,75,84.2,65,20,14.99,1588029949
san cristobal,EC,-4.95,39.75,78.82,78.82,78.82,87,100,9.98,1588030021
road town,VG,24.8,125.28,72.34,71.6,73.4,73,40,13.87,1588030021
lima,PE,-36.62,-64.28,60.85,60.85,60.85,92,100,7.31,1588030021
sulangan,PH,53.87,-1.91,44.35,43,45,73,51,1.01,1588030022
iranshahr,IR,22.2,92.23,70.43,70.43,70.43,93,10,2.62,1588030022
marfino,RU,42.81,10.31,62.31,61,64,97,98,3,1588030022
saleaula,WS,-3.1,-60.02,80.6,80.6,80.6,94,20,4.7,1588030022
haines junction,CA,-5.79,-35.21,77.94,77,78.8,88,20,4.7,1588029820
lata,SB,-14.45,-56.8,75.38,75.38,75.38,70,32,3.15,1588030023
phan thiet,VN,0.52,29.32,65.37,65.37,65.37,74,100,1.03,1588030023
wuan,CN,66.32,-179.17,15.33,15.33,15.33,93,74,4.07,1588030024
gharo,PK,30.19,116.03,58.68,58.68,58.68,55,2,5.08,1588030024
sayyan,YE,60.82,-115.8,44.6,44.6,44.6,52,75,17.22,1588030024
yingshang,CN,65.7,82.47,27.37,27.37,27.37,98,98,7.94,1588030024
saint-francois,GP,14.11,-15.55,89.6,89.6,89.6,33,86,6.93,1588029906
rocha,UY,-15.77,128.73,78.8,78.8,78.8,69,26,3.36,1588030025
mehamn,NO,-31.43,-62.08,68.74,68,69.01,93,96,4,1588030025
sedelnikovo,RU,42.05,-82.61,51.06,48.99,54,100,65,12.24,1588030025
bandiagara,ML,65.42,-52.9,32.07,32.07,32.07,93,91,8.16,1588029928
bonthe,SL,59.4,9.97,38.23,34,39.99,21,93,3,1588030026
goya,AR,31.65,-106.3,92.52,91.4,93.2,8,75,13.87,1588029781
anadyr,RU,14.97,8.89,83.97,83.97,83.97,11,10,4.34,1588030026
wuwei,CN,67.54,133.38,24.98,24.98,24.98,90,83,6.11,1588030027
labutta,MM,-40.81,-63,58.86,58.86,58.86,91,100,11.3,1588030027
kazalinsk,KZ,43.41,-124.22,59.9,57.99,63,93,90,14.99,1588030028
yantal,RU,35.25,136.25,55.94,55,57,71,10,1.01,1588030028
asfi,MA,-20.28,44.28,77.65,77.65,77.65,65,3,4.85,1588030028
ubinskoye,RU,15.12,108.8,72.97,72.97,72.97,89,98,5.23,1588030028
la plata,AR,41.62,48.35,47.39,47.39,47.39,56,59,6.69,1588030029
antalaha,MG,18.22,-63.06,79.86,79,80.6,69,40,9.17,1588030029
srednekolymsk,RU,51.23,-58.65,33.6,33.6,33.6,87,5,6.69,1588030029
voh,NC,54.32,-130.32,50,50,50,76,75,9.17,1588030029
ilia,RO,41.17,75.81,46,46,46,74,0,1.01,1588030030
suihua,CN,-12.93,-64.87,76.3,76.3,76.3,82,67,1.92,1588030030
halalo,WF,-0.22,20.87,70.29,70.29,70.29,89,93,0.49,1588030030
olinda,BR,-10.13,-36.18,77.88,77.88,77.88,85,92,6.55,1588030030
chelno-vershiny,RU,-5.12,-60.38,76.75,76.75,76.75,95,95,0.78,1588030030
warmbad,NA,43.48,-5.44,52.72,52,54,89,91,3.38,1588030031
katsuura,JP,-23.53,148.17,73.22,73,73.4,56,53,8.05,1588029875
alto araguaia,BR,-5.36,104.97,72.23,72.23,72.23,89,98,3.69,1588030031
aleksandriya,RU,7.04,134.26,77,77,77,94,90,5.82,1588030031
sorland,NO,-16.7,-151.02,83.75,83.75,83.75,77,0,16.35,1588030032
tiarei,PF,42.17,-71.25,37.87,37,39,95,100,1.01,1588030032
batemans bay,AU,40.25,-76.25,48.22,46.99,50,57,40,13.87,1588030032
port keats,AU,54.48,53.47,43.59,43.59,43.59,88,38,4.03,1588030047
raymond,US,30.48,-115.95,70.03,70.03,70.03,66,3,12.93,1588030048
karasjok,NO,38.8,-9.45,57.29,55,57.99,83,4,6.98,1588030048
shimoda,JP,49.92,-109.48,64.45,64.45,64.45,26,18,21.23,1588030048
cambridge,US,-4.85,21.57,69.28,69.28,69.28,85,86,0.87,1588030049
vidim,RU,68.82,-51.19,30.2,30.2,30.2,100,64,8.05,1588030049
senador guiomard,BR,26.0,63.04,78.6,78.6,78.6,69,0,0.74,1588030049
araguacu,BR,59.45,26.87,34.52,34.52,34.52,84,33,4.43,1588030049
waingapu,ID,16.6,-22.9,71.6,71.6,71.6,78,75,12.75,1588030049
strezhevoy,RU,-21.03,-41.65,62.89,62.89,62.89,83,3,3.2,1588030050
gonen,TR,-16.16,33.59,68.36,68.36,68.36,88,29,4.9,1588030050
lahij,YE,3.08,-59.95,88.86,88.86,88.86,47,95,4.81,1588030050
cukai,MY,39.47,3.15,61.32,59,64.4,88,75,4.7,1588030050
fort nelson,CA,22.08,85.67,73.2,73.2,73.2,66,74,2.21,1588030050
santa helena de goias,BR,-2.23,-80.85,80.6,80.6,80.6,74,54,6.93,1588030051
carballo,ES,64.84,-147.72,44.42,42.8,45,33,1,6.93,1588029854
deep river,CA,-8.58,116.12,73.4,73.4,73.4,100,20,4.83,1588030051
robertsport,LR,-8.19,114.97,80.6,80.6,80.6,94,20,3.36,1588030051
punta alta,AR,56.85,105.25,45.25,45.25,45.25,50,30,0.74,1588030052
sondrio,IT,31.45,74.93,69.73,68,71.6,82,20,2.24,1588030052
san julian,BO,16.18,-22.92,71.6,71.6,71.6,78,75,12.75,1588030052
sumbawa,ID,-33.8,19.89,55.08,55.08,55.08,79,69,3.74,1588030052
margate,ZA,66.53,66.6,26.47,26.47,26.47,97,93,2.24,1588030053
chemax,MX,45.05,7.35,55.85,54,57.99,96,100,1.99,1588030053
mujiayingzi,CN,53.14,-1.56,46.99,46.99,46.99,42,84,5.88,1588030053
eureka,US,51.8,68.33,56.7,56.7,56.7,89,100,4.09,1588030054
torit,SD,-21.7,-57.88,78.93,78.93,78.93,42,4,5.53,1588030054
mwinilunga,ZM,18.04,-71.74,82.31,82.31,82.31,65,63,5.41,1588030054
san carlos de bariloche,AR,-17.71,-39.25,74.98,74.98,74.98,80,2,8.61,1588030054
vallenar,CL,-7.84,-79.15,72.43,72.43,72.43,68,74,8.28,1588030055
nieves,MX,60.75,-137.51,44.04,44.04,44.04,51,98,1.07,1588030055
hokitika,NZ,56.6,25.26,33.01,33.01,33.01,87,86,4.68,1588030055
usinsk,RU,13.07,-59.53,80.6,80.6,80.6,69,20,21.92,1588030055
uglich,RU,70.86,29.09,26.83,26.83,26.83,92,100,8.97,1588030056
california,CO,62.53,155.8,26.02,26.02,26.02,84,5,3.13,1588030056
bolungarvik,IS,68.53,146.42,24.01,24.01,24.01,96,100,11.07,1588030056
la paz,MX,41.12,-100.77,81.86,81,82.4,21,20,6.93,1588029857
dien bien,VN,-6.13,12.37,79.83,79.83,79.83,86,61,9.42,1588030056
grindavik,IS,52.96,4.76,48.61,48,50,81,90,5.82,1588030057
north bend,US,53.31,17.94,49.3,46.99,51.8,70,62,3.36,1588030057
touros,BR,32.3,-9.24,63.45,63.45,63.45,82,0,5.77,1588029847
genhe,CN,36.62,101.77,46.35,46.35,46.35,19,0,2.28,1588030057
glace bay,CA,35.0,132.22,53.6,53.6,53.6,66,16,6.93,1588030058
richards bay,ZA,5.56,95.32,79.81,79.81,79.81,76,97,7.4,1588030058
umm lajj,SA,15.44,119.9,82.53,82.53,82.53,71,71,4.25,1588030058
hay river,CA,37.05,140.88,53.2,50,55,49,55,1.99,1588030058
saryozek,KZ,41.63,48.68,49.28,49.28,49.28,76,31,9.46,1588030059
smolenka,RU,42.78,-9.06,53.19,51.01,55,82,39,8.99,1588030059
mentok,ID,65.98,60.31,26.8,26.8,26.8,92,87,5.3,1588030060
chunskiy,RU,26.73,33.94,71.6,71.6,71.6,53,0,4.7,1588030060
ribeira brava,PT,-33.27,115.72,54,54,54,70,25,9.04,1588030075
dubbo,AU,21.35,-158.09,83.46,78.8,86,48,40,11.41,1588030075
ostrovnoy,RU,50.72,136.63,44.67,44.67,44.67,58,60,1.72,1588030076
carutapera,BR,-21.76,-52.12,70.48,70.48,70.48,65,0,7.87,1588029962
moron,MN,-20.73,139.5,78.8,78.8,78.8,36,0,12.75,1588030076
durango,US,61.73,130.28,35.6,35.6,35.6,51,73,13.42,1588030077
tiruvottiyur,IN,-22.67,167.48,75.13,75.13,75.13,76,14,26.04,1588030077
